{"version": 0.6, "generator": "Overpass API 0.7.62.10 2d4cfc48", "osm3s": {"timestamp_osm_base": "2026-02-25T01:53:36Z", "copyright": "The data included in this document is from www.openstreetmap.org. The data is made available under ODbL."}, "elements": [{"type": "node", "id": 5445159540, "lat": 22.2949249, "lon": 113.9496339, "tags": {"amenity": "restaurant", "brand": "\u5fc5\u52dd\u5ba2 Pizza Hut", "brand:en": "Pizza Hut", "brand:wikidata": "Q191615", "brand:wikipedia": "zh:\u5fc5\u80dc\u5ba2", "brand:zh": "\u5fc5\u52dd\u5ba2", "brand:zh-Hans": "\u5fc5\u80dc\u5ba2", "brand:zh-Hant": "\u5fc5\u52dd\u5ba2", "cuisine": "pizza", "name": "\u5fc5\u52dd\u5ba2 Pizza Hut", "name:en": "Pizza Hut", "name:zh": "\u5fc5\u52dd\u5ba2", "name:zh-Hans": "\u5fc5\u80dc\u5ba2", "name:zh-Hant": "\u5fc5\u52dd\u5ba2", "opening_hours": "Mo-Th 11:00-22:30; Fr-Su,PH 11:00-23:00"}}, {"type": "node", "id": 5570274325, "lat": 22.2922044, "lon": 113.9495735, "tags": {"amenity": "restaurant", "check_date:opening_hours": "2021-07-04", "indoor": "yes", "name": "Fairwood", "opening_hours": "Mo-Su,PH 07:00-21:00"}}, {"type": "node", "id": 5570274326, "lat": 22.2919269, "lon": 113.9488603, "tags": {"amenity": "restaurant", "check_date:opening_hours": "2021-07-04", "cuisine": "asian", "diet:vegetarian": "yes", "indoor": "yes", "name": "Dosirak House", "opening_hours": "We-Su 11:00-20:00"}}, {"type": "node", "id": 6104636488, "lat": 22.2950253, "lon": 113.9504063, "tags": {"amenity": "restaurant", "capacity": "20", "cuisine": "french;chicken;meat", "name": "La Rosabelle", "opening_hours": "Mo-Su 10:30 - 22:30", "outdoor_seating": "yes", "smoking": "no", "takeaway": "yes"}}, {"type": "node", "id": 7525763002, "lat": 22.2921082, "lon": 113.9496531, "tags": {"amenity": "restaurant", "name": "Little Onion", "opening_hours": "closed \"due to renovation\""}}, {"type": "node", "id": 7531366331, "lat": 22.2950324, "lon": 113.9504737, "tags": {"amenity": "restaurant", "name": "Super Super"}}, {"type": "node", "id": 12312188547, "lat": 22.2949126, "lon": 113.9489902, "tags": {"amenity": "restaurant", "name": "\u5ba2\u5bb6\u597d\u68e7 Hak Ka Hut", "name:en": "Hak Ka Hut", "name:zh": "\u5ba2\u5bb6\u597d\u68e7"}}, {"type": "node", "id": 12385620547, "lat": 22.2955598, "lon": 113.9532574}, {"type": "node", "id": 12385620548, "lat": 22.2955229, "lon": 113.9531362}, {"type": "node", "id": 12385620549, "lat": 22.2956569, "lon": 113.9532307}, {"type": "node", "id": 12385620550, "lat": 22.2956445, "lon": 113.953178}, {"type": "node", "id": 12385620551, "lat": 22.2956978, "lon": 113.9531634}, {"type": "node", "id": 12385620552, "lat": 22.2955013, "lon": 113.9532735}, {"type": "node", "id": 12385620553, "lat": 22.2954723, "lon": 113.9531501}, {"type": "node", "id": 12385620554, "lat": 22.2956812, "lon": 113.9530927}, {"type": "node", "id": 12385620675, "lat": 22.2953803, "lon": 113.9530274}, {"type": "node", "id": 12385620676, "lat": 22.2953575, "lon": 113.9529611}, {"type": "node", "id": 12385620677, "lat": 22.2953973, "lon": 113.9529452}, {"type": "node", "id": 12385620678, "lat": 22.2955217, "lon": 113.9530055}, {"type": "node", "id": 12385620679, "lat": 22.2954101, "lon": 113.9529826}, {"type": "node", "id": 12385620680, "lat": 22.295517, "lon": 113.9529673}, {"type": "node", "id": 12385620681, "lat": 22.2956333, "lon": 113.9529896}, {"type": "node", "id": 12385620682, "lat": 22.2955104, "lon": 113.9530764}, {"type": "node", "id": 12385620683, "lat": 22.2956499, "lon": 113.9530365}, {"type": "way", "id": 1338981212, "nodes": [12385620554, 12385620551, 12385620550, 12385620549, 12385620547, 12385620552, 12385620553, 12385620548, 12385620554], "tags": {"addr:housename": "\u8fce\u6771\u5546\u5834 Ying Tung Shopping Centre", "addr:housename:en": "Ying Tung Shopping Centre", "addr:housename:zh": "\u8fce\u6771\u5546\u5834", "addr:unit": "2", "amenity": "restaurant", "name": "\u610f\u6a02 Itamomo", "name:en": "Itamomo", "name:zh": "\u610f\u6a02", "name:zh-Hans": "\u610f\u4e50", "name:zh-Hant": "\u610f\u6a02"}}, {"type": "way", "id": 1338981230, "nodes": [12385620681, 12385620683, 12385620682, 12385620675, 12385620676, 12385620677, 12385620679, 12385620680, 12385620678, 12385620681], "tags": {"addr:housename": "\u8fce\u6771\u5546\u5834 Ying Tung Shopping Centre", "addr:housename:en": "Ying Tung Shopping Centre", "addr:housename:zh": "\u8fce\u6771\u5546\u5834", "addr:unit": "1", "amenity": "restaurant", "name": "\u8fce\u6771\u58f9\u865f\u8336\u9910\u5ef3 Y.T.O. Local Restaurant", "name:en": "Y.T.O. Local Restaurant", "name:zh": "\u8fce\u6771\u58f9\u865f\u8336\u9910\u5ef3"}}]}